[ 
  {
    "id": 1755931168722,
    "lat": 37.6485819883224,
    "lng": 127.063115737673,
    "fullAddress": "인제대학교상계백병원",
    "roadAddress": "동일로 1342"
  },
  {
    "id": 1755931174480,
    "lat": 37.6538310278932,
    "lng": 127.06017787506,
    "fullAddress": "서울스카이정형외과의원정형외과",
    "roadAddress": "동일로 1405"
  },
  {
    "id": 1755931206447,
    "lat": 37.6361106543284,
    "lng": 127.06968108866,
    "fullAddress": "노원을지대학교병원종합병원",
    "roadAddress": "한글비석로 68"
  },
  {
    "id": 1755931212562,
    "lat": 37.6574506244607,
    "lng": 127.066727527743,
    "fullAddress": "노원365온한의원한의원",
    "roadAddress": "노원로 456"
  },
  {
    "id": 1755931218571,
    "lat": 37.674798,
    "lng": 127.054854,
    "fullAddress": "상계성모정형외과의원",
    "roadAddress": "동일로 1643"
  },
  {
    "id": 1755931225266,
    "lat": 37.6780947400484,
    "lng": 127.055706735633,
    "fullAddress": "새서울연합의원",
    "roadAddress": "동일로 1678"
  },
  {
    "id": 1755931231285,
    "lat": 37.6547688511508,
    "lng": 127.060019298479,
    "fullAddress": "세이유외과의원 서울노원점외과",
    "roadAddress": "동일로 1413"
  },
  {
    "id": 1755931309659,
    "lat": 37.6314500319871,
    "lng": 127.061591110372,
    "fullAddress": "월계보건지소",
    "roadAddress": "월계로 378"
  },
  {
    "id": 1755931315018,
    "lat": 37.6247880837939,
    "lng": 127.08000297878,
    "fullAddress": "공릉보건지소보건지소",
    "roadAddress": "공릉로 166-1"
  },
  {
    "id": 1755931334629,
    "lat": 127.067864123732,
    "lng": 127.077103,
    "fullAddress": "상계보건지소보건지소",
    "roadAddress": "상계로 118"
  },
  {
    "id": 1755931349822,
    "lat": 37.6271656479512,
    "lng": 127.079141072247,
    "fullAddress": "평화치과의원",
    "roadAddress": "공릉로46길 3"
  }
  {
    "id": 1755931355931,
    "lat": 37.626426,
    "lng": 127.078959,
    "fullAddress": "해독한의원 노원점, 187, 공릉로, 공릉2동, 노원구, 서울특별시, 01819, 대한민국",
    "roadAddress": "공릉로 187"
  },
  {
    "id": 1755931361914,
    "lat": 37.6259363374297,
    "lng": 127.079415945795,
    "fullAddress": "공릉성모마취통증의학과의원, 181, 공릉로, 공릉2동, 노원구, 서울특별시, 01819, 대한민국",
    "roadAddress": "공릉로 181"
  }
]